{
  "festivals": [
    {
      "icon":"https://streetfoodfinder.com/static/uploads/vendor/photos/404252/profile_e",
      "name": "Name Of event - from food truck",
      "foodtype": "Coffee, Breakfast, Sandwiches",
      "address": "Watkins Memorial High School",
      "street":"12089 Toll Gate Rd",
      "city": "Pickerington",
      "state": "OH 43147, USA",
      "time": " 6:30am-8:30am",
      "lat": "39.985351",
      "lng": "-82.999752"
      },
      {
        "icon":"https://streetfoodfinder.com/static/uploads/vendor/photos/1689324062/profile_e",
      "name": "Dark Roast Events",
      "foodtype": "Coffee, Breakfast, Sandwiches",
      "address": "Watkins Memorial High School",
      "street":"12089 Toll Gate Rd",
      "city": "Pickerington",
      "state": "OH 43147, USA",
      "time": "6:30am-8:30am",
      "lat": "40.047136",
      "lng": "-82.915866"
       },
       {
         "icon":"https://streetfoodfinder.com/static/uploads/vendor/photos/594220674/profile_e",
        "name": "Origami Crane Wedding Planners",
        "foodtype": "Coffee, Breakfast, Sandwiches",
        "address": "Watkins Memorial High School",
        "street":"12089 Toll Gate Rd",
        "city": "Pickerington",
        "state": "OH 43147, USA",
        "time": " 6:30am-8:30am",
        "lat": "40.105727",
        "lng": "-83.127896"
         }
  ],
  "vendors": [
    {
      "icon":"https://streetfoodfinder.com/static/uploads/vendor/photos/1013502938260570113/profile_e",
      "name": "2 Brothers Tacos",
      "foodtype": "Thai, Indian, South African",
      "events": "12 upcoming events",
      "inform": " Family business and authentic",
      "address": "Seasoned Farmhouse cooking class",
      "street":"3674 N High St",
      "city": "Pickerington",
      "state": "Columbus,OH 43214, USA",
      "lat": "40.075355",
      "lng": "-82.96715"
    },
    {
      "icon":"https://streetfoodfinder.com/static/uploads/vendor/photos/211607/profile_e",
      "name": "Zapataâ€™s food truck",
      "foodtype": "Mexican, Tacos, Latin American",
      "events": "12 upcoming events",
      "inform": " Family business and authentic ",
      "address": "Pins Mechanical Food Truck Schedule",
      "street":"141 N 4th St",
      "city": "Pickerington",
      "state": "Columbus,OH 43214, USA",
      "lat":"39.965804",
      "lng":"-82.997089"
    },
    {
      "icon":"https://streetfoodfinder.com/static/uploads/vendor/photos/39065362/profile_e",
      "name": "2 Brothers Tacos",
      "foodtype": "Mexican",
      "events": "12 upcoming events",
      "inform": " Family business and authentic ",
      "address": "Seasoned Farmhouse cooking class",
      "street":"3674 N High St",
      "city": "Pickerington",
      "state": "Columbus,OH 43214, USA",
      "lat":"40.036994",
      "lng":"-83.016901"
    }
  ],
    "restaurant": [
            {
              
              "icon":"https://streetfoodfinder.com/static/uploads/vendor/photos/325813/profile_e",
              "name": "Porters Coffee House",
              "description": "Khyber Restaurant is quite a popular dining establishment in Mumbai",
              "address": "1569 Mueller Drives\nWest Ednamouth, NE 31963",
              "street":"12089 Toll Gate Rd",
              "city": "Pickerington",
              "state": "OH 43147, USA",
              "zip": "42916",
              "lat": "40.075355",
              "lng": "-82.96715",
              "distance": "18 mi",
              "foodtype": "Coffee, Breakfast, Sandwiches",
              "location": "Pickerington, OH 43147, USA",
              "time": "7:30am-9:30am",
              "created_at": "2022-04-11 18:22:09",
              "updated_at": "2022-04-11 18:22:09"
            },
            {
              
              "icon":"https://streetfoodfinder.com/static/uploads/vendor/photos/404421943/profile_e",
              "name": "The Columbus Coffee Co.",
              "description": "Iste debitis tenetur voluptates voluptatem sunt facere. Impedit aut ipsum assumenda voluptatem. Mollitia nam aspernatur eveniet tempore. Et impedit corrupti ut eos autem magni.",
              "address": "Powell Center-120 E Olentangy",
              "foodtype": "Coffee, Desserts, Shaved Ice",
              "distance": "18 mi",
              "street":"120 E Olentangy St",
              "city": "Powell",
              "state": "OH 43065, USA",
              "time": " 7:30am-12pm",
              "info":"Drive up to the Big Red Truck in the parking lot of Powell Center",
              "zip": "14637",
              "lat": "40.159081",
              "lng": "-83.071892",
              "OrderAhead":"Order Ahead",
              "created_at": "2022-04-11 18:22:09",
              "updated_at": "2022-04-11 18:22:09"
            },
            
            {
             
              "icon":"https://streetfoodfinder.com/static/uploads/vendor/photos/628542257/profile_e",
              "name": "Schmidt's Sausage Truck",
              "description": "Debitis nesciunt autem delectus est. Doloremque vel aperiam in expedita. Sint sunt cupiditate porro in perferendis. Atque tempora sed placeat ea neque voluptas.",
              "address": "Schmidt's Carry-out at Raymond",
              "foodtype":"German",
              "time": "9am-6pm",
              "info":"Outdoor Kiosk is OPEN!! Weather permitting",
              "street":"3860 Trabue Rd",
              "city": "Columbus",
              "state": "OH 43228, USA",
              "zip": "37331-2125",
              "lat": "39.990623",
              "lng": "-83.100052",
              "created_at": "2022-04-11 18:22:09",
              "updated_at": "2022-04-11 18:22:09"
            },
            {
              "id": "4",
              "icon":"https://streetfoodfinder.com/static/uploads/vendor/photos/855619961703677952/profile_e",
              "name": "Harmonica Club",
              "description": "Iste debitis tenetur voluptates voluptatem sunt facere. Impedit aut ipsum assumenda voluptatem. Mollitia nam aspernatur eveniet tempore. Et impedit corrupti ut eos autem magni.",
              "address": "8584 Vance Burgs\nKrisland, NJ 34724-2581",
              "foodtype": "Coffee, Breakfast, Sandwiches",
              "street":"120 E Olentangy St",
              "distance": "18 mi",
              "city": "Ahmedabad",
              "state": "Gujarat",
              "time": " 6:30am-8:30am",
              "zip": "14637",
              "lat": "22.990732",
              "lng": "72.616531",
              "created_at": "2022-04-11 18:22:09",
              "updated_at": "2022-04-11 18:22:09"
            },
            {
              "id": "5",
              "icon":"https://streetfoodfinder.com/static/uploads/vendor/photos/855619961703677952/profile_e",
              "name": "American, Ice Cream",
              "description": "Iste debitis tenetur voluptates voluptatem sunt facere. Impedit aut ipsum assumenda voluptatem. Mollitia nam aspernatur eveniet tempore. Et impedit corrupti ut eos autem magni.",
              "address": "Oakland Nursery - Dublin",
              "street":"4261 W Dublin Granville Rd",
              "foodtype": "American, Ice Cream",
              "distance": "18 mi",
              "city": "Dublin",
              "state": "OH 43017, USA",
              "time": "11:30am-1:30pm",
              "zip": "14637",
              "lat": "40.105727",
              "lng": "-83.127896",
              "OrderAhead":"Order Ahead",
              "created_at": "2022-04-11 18:22:09",
              "updated_at": "2022-04-11 18:22:09"
            }
            
    ]
}